[
    {
        "Business_ID": "hdiuRS9sVZSMReZm4oV5SA",
        "Name": "Da Andrea",
        "Address": "35 W 13th St",
        "Coordinates": "{'latitude': 40.736218, 'longitude': -73.99597}",
        "Num_of_Reviews": "1820",
        "Rating": "4.5",
        "Zip_Code": "10011",
        "Cuisine": "Italian",
        "City_Region": "Manhattan"
    },
    {
        "Business_ID": "16ZnHpuaaBt92XWeJHCC5A",
        "Name": "Olio e Pi\u00f9",
        "Address": "3 Greenwich Ave",
        "Coordinates": "{'latitude': 40.733798036104304, 'longitude': -73.99977392649927}",
        "Num_of_Reviews": "4030",
        "Rating": "4.5",
        "Zip_Code": "10014",
        "Cuisine": "Italian",
        "City_Region": "Manhattan"
    },
    {
        "Business_ID": "OWNmOq-TAsHjGcYdCVclSw",
        "Name": "Osteria La Baia",
        "Address": "129 W 52nd St",
        "Coordinates": "{'latitude': 40.76189587672743, 'longitude': -73.9806749}",
        "Num_of_Reviews": "68",
        "Rating": "4.5",
        "Zip_Code": "10019",
        "Cuisine": "Italian",
        "City_Region": "Manhattan"
    },
    {
        "Business_ID": "DoSU8IPq-Py_YV3kYmXPfQ",
        "Name": "Trattoria Trecolori",
        "Address": "254 West 47th St",
        "Coordinates": "{'latitude': 40.759876, 'longitude': -73.986767}",
        "Num_of_Reviews": "2606",
        "Rating": "4.0",
        "Zip_Code": "10036",
        "Cuisine": "Italian",
        "City_Region": "Manhattan"
    },
    {
        "Business_ID": "rp8S7scxOkVVeG7dNneMGQ",
        "Name": "L'Artusi",
        "Address": "228 W 10th St",
        "Coordinates": "{'latitude': 40.73372, 'longitude': -74.00513}",
        "Num_of_Reviews": "2236",
        "Rating": "4.5",
        "Zip_Code": "10014",
        "Cuisine": "Italian",
        "City_Region": "Manhattan"
    },
    {
        "Business_ID": "VmdyRRMtUXOWV7F7w0ImwQ",
        "Name": "Piccola Cucina Uptown",
        "Address": "106 E 60th St",
        "Coordinates": "{'latitude': 40.763174, 'longitude': -73.969046}",
        "Num_of_Reviews": "283",
        "Rating": "4.5",
        "Zip_Code": "10022",
        "Cuisine": "Italian",
        "City_Region": "Manhattan"
    },
    {
        "Business_ID": "vjubSxmdG_HoBBgd39geBw",
        "Name": "Nino's 46",
        "Address": "39 W 46th St",
        "Coordinates": "{'latitude': 40.7569046125342, 'longitude': -73.980516}",
        "Num_of_Reviews": "1353",
        "Rating": "4.0",
        "Zip_Code": "10036",
        "Cuisine": "Italian",
        "City_Region": "Manhattan"
    },
    {
        "Business_ID": "WG639VkTjmK5dzydd1BBJA",
        "Name": "Rubirosa",
        "Address": "235 Mulberry St",
        "Coordinates": "{'latitude': 40.722766, 'longitude': -73.996233}",
        "Num_of_Reviews": "2912",
        "Rating": "4.5",
        "Zip_Code": "10012",
        "Cuisine": "Italian",
        "City_Region": "Manhattan"
    },
    {
        "Business_ID": "BPo5XByMdNiXK_i--gqiRA",
        "Name": "Duomo51",
        "Address": "25 W 51st St",
        "Coordinates": "{'latitude': 40.759979, 'longitude': -73.97824}",
        "Num_of_Reviews": "13",
        "Rating": "4.5",
        "Zip_Code": "10019",
        "Cuisine": "Italian",
        "City_Region": "Manhattan"
    },
    {
        "Business_ID": "OAqsZMbjv66nOMqlimnYuQ",
        "Name": "Uva",
        "Address": "1486 2nd Ave",
        "Coordinates": "{'latitude': 40.77219299003591, 'longitude': -73.95561517222123}",
        "Num_of_Reviews": "2702",
        "Rating": "4.0",
        "Zip_Code": "10075",
        "Cuisine": "Italian",
        "City_Region": "Manhattan"
    },
    {
        "Business_ID": "JLpEKUYAtzBRQwsUL3RPIA",
        "Name": "Il Corso",
        "Address": "54 W 55th St",
        "Coordinates": "{'latitude': 40.762441, 'longitude': -73.977206}",
        "Num_of_Reviews": "422",
        "Rating": "4.5",
        "Zip_Code": "10019",
        "Cuisine": "Italian",
        "City_Region": "Manhattan"
    },
    {
        "Business_ID": "22nKUyCIbpnzR6R3_g1ptQ",
        "Name": "Carmine's Italian Restaurant - Times Square",
        "Address": "200 W 44th St",
        "Coordinates": "{'latitude': 40.75749848725768, 'longitude': -73.98665333142026}",
        "Num_of_Reviews": "4411",
        "Rating": "4.0",
        "Zip_Code": "10036",
        "Cuisine": "Italian",
        "City_Region": "Manhattan"
    },
    {
        "Business_ID": "V3USzFEGhuoXez4G2Rk11A",
        "Name": "Tavola",
        "Address": "488 9th Ave",
        "Coordinates": "{'latitude': 40.755403, 'longitude': -73.994516}",
        "Num_of_Reviews": "1235",
        "Rating": "4.0",
        "Zip_Code": "10018",
        "Cuisine": "Italian",
        "City_Region": "Manhattan"
    },
    {
        "Business_ID": "AUifp6IDKzmorCM6vY2fug",
        "Name": "Pepe Giallo",
        "Address": "195 10th Ave",
        "Coordinates": "{'latitude': 40.7468940064083, 'longitude': -74.0049896784992}",
        "Num_of_Reviews": "760",
        "Rating": "4.0",
        "Zip_Code": "10011",
        "Cuisine": "Italian",
        "City_Region": "Manhattan"
    },
    {
        "Business_ID": "raqwXUBlnc0e8c7CYmxEJQ",
        "Name": "Scarpetta",
        "Address": "88 Madison Ave",
        "Coordinates": "{'latitude': 40.744509, 'longitude': -73.9856}",
        "Num_of_Reviews": "2218",
        "Rating": "4.0",
        "Zip_Code": "10016",
        "Cuisine": "Italian",
        "City_Region": "Manhattan"
    },
    {
        "Business_ID": "5TX0X8w5ssIACU_pnBEq6g",
        "Name": "Tony's Di Napoli",
        "Address": "147 W 43rd St",
        "Coordinates": "{'latitude': 40.75641, 'longitude': -73.98547}",
        "Num_of_Reviews": "2484",
        "Rating": "4.0",
        "Zip_Code": "10036",
        "Cuisine": "Italian",
        "City_Region": "Manhattan"
    },
    {
        "Business_ID": "h37t9rA06Sr4EetJjKrfzw",
        "Name": "Don Angie",
        "Address": "103 Greenwich Ave",
        "Coordinates": "{'latitude': 40.73778, 'longitude': -74.00197}",
        "Num_of_Reviews": "655",
        "Rating": "4.5",
        "Zip_Code": "10014",
        "Cuisine": "Italian",
        "City_Region": "Manhattan"
    },
    {
        "Business_ID": "qBGKigOGn_flCx1apxPzlA",
        "Name": "Piccola Cucina Osteria",
        "Address": "196 Spring St",
        "Coordinates": "{'latitude': 40.72506, 'longitude': -74.00322}",
        "Num_of_Reviews": "758",
        "Rating": "4.5",
        "Zip_Code": "10012",
        "Cuisine": "Italian",
        "City_Region": "Manhattan"
    },
    {
        "Business_ID": "TqNd-LKHuoYo1_mYwqiBFQ",
        "Name": "Nonna Dora\u2019s",
        "Address": "606 2nd Ave",
        "Coordinates": "{'latitude': 40.74440176159688, 'longitude': -73.97634764480043}",
        "Num_of_Reviews": "64",
        "Rating": "4.5",
        "Zip_Code": "10016",
        "Cuisine": "Italian",
        "City_Region": "Manhattan"
    },
    {
        "Business_ID": "OCTiJwvjoK81WoDwsTkFvA",
        "Name": "Paesano of Mulberry Street",
        "Address": "136 Mulberry St",
        "Coordinates": "{'latitude': 40.718554, 'longitude': -73.997447}",
        "Num_of_Reviews": "1336",
        "Rating": "4.0",
        "Zip_Code": "10013",
        "Cuisine": "Italian",
        "City_Region": "Manhattan"
    },
    {
        "Business_ID": "LkV96_buOU_n0br4SBO57w",
        "Name": "Ci Siamo",
        "Address": "440 West 33rd St",
        "Coordinates": "{'latitude': 40.75240549384363, 'longitude': -73.9982864846782}",
        "Num_of_Reviews": "245",
        "Rating": "4.5",
        "Zip_Code": "10001",
        "Cuisine": "Italian",
        "City_Region": "Manhattan"
    },
    {
        "Business_ID": "LXdblKc5g1Dp17xiV-Am1w",
        "Name": "Trattoria Dell'Arte",
        "Address": "900 7th Ave",
        "Coordinates": "{'latitude': 40.76545990643915, 'longitude': -73.98053136970677}",
        "Num_of_Reviews": "1158",
        "Rating": "4.0",
        "Zip_Code": "10019",
        "Cuisine": "Italian",
        "City_Region": "Manhattan"
    },
    {
        "Business_ID": "dIyKvfhjtm3NuKrMVVt0TA",
        "Name": "Lucciola Italian Restaurant",
        "Address": "621 Amsterdam Ave",
        "Coordinates": "{'latitude': 40.790362, 'longitude': -73.972629}",
        "Num_of_Reviews": "78",
        "Rating": "4.5",
        "Zip_Code": "10024",
        "Cuisine": "Italian",
        "City_Region": "Manhattan"
    },
    {
        "Business_ID": "MOwB9YYd-Ko6nVgSB-ltQw",
        "Name": "Briciola",
        "Address": "370 W 51st St",
        "Coordinates": "{'latitude': 40.7637997047278, 'longitude': -73.9880919456482}",
        "Num_of_Reviews": "982",
        "Rating": "4.0",
        "Zip_Code": "10019",
        "Cuisine": "Italian",
        "City_Region": "Manhattan"
    },
    {
        "Business_ID": "HpxYBu1ARzOGvuUcLJe54g",
        "Name": "Giardino 54",
        "Address": "400 1/2 W 54th St",
        "Coordinates": "{'latitude': 40.7660476, 'longitude': -73.987591}",
        "Num_of_Reviews": "195",
        "Rating": "4.5",
        "Zip_Code": "10019",
        "Cuisine": "Italian",
        "City_Region": "Manhattan"
    },
    {
        "Business_ID": "26emJlm1YMFyOCezfgVk4g",
        "Name": "Da Raffaele",
        "Address": "883 First Ave",
        "Coordinates": "{'latitude': 40.7535386913133, 'longitude': -73.9666010811925}",
        "Num_of_Reviews": "218",
        "Rating": "4.5",
        "Zip_Code": "10022",
        "Cuisine": "Italian",
        "City_Region": "Manhattan"
    },
    {
        "Business_ID": "yB4ziqFM_7V8JxJas7CHfA",
        "Name": "Ulivo",
        "Address": "4 W 28th St",
        "Coordinates": "{'latitude': 40.7447371960713, 'longitude': -73.9880339428782}",
        "Num_of_Reviews": "365",
        "Rating": "4.0",
        "Zip_Code": "10001",
        "Cuisine": "Italian",
        "City_Region": "Manhattan"
    },
    {
        "Business_ID": "8oO6j7AlnAbMSJs9Oj9GIw",
        "Name": "Osteria Delbianco",
        "Address": "22 East 49th St",
        "Coordinates": "{'latitude': 40.7573689002, 'longitude': -73.9764462233}",
        "Num_of_Reviews": "171",
        "Rating": "4.5",
        "Zip_Code": "10017",
        "Cuisine": "Italian",
        "City_Region": "Manhattan"
    },
    {
        "Business_ID": "Q1_UvNyONsaVS_VC1mD9Dw",
        "Name": "Osteria Cotta",
        "Address": "513 Columbus Ave",
        "Coordinates": "{'latitude': 40.78554, 'longitude': -73.97263}",
        "Num_of_Reviews": "1032",
        "Rating": "4.0",
        "Zip_Code": "10024",
        "Cuisine": "Italian",
        "City_Region": "Manhattan"
    },
    {
        "Business_ID": "Vs8kQ4R381y27AH018gLpg",
        "Name": "Supper",
        "Address": "156 E 2nd St",
        "Coordinates": "{'latitude': 40.72290786539601, 'longitude': -73.98520720537888}",
        "Num_of_Reviews": "1460",
        "Rating": "4.0",
        "Zip_Code": "10009",
        "Cuisine": "Italian",
        "City_Region": "Manhattan"
    },
    {
        "Business_ID": "HiNUBUR1hFwScd_OvVLQAg",
        "Name": "La Pecora Bianca",
        "Address": "1133 Broadway",
        "Coordinates": "{'latitude': 40.74358, 'longitude': -73.9892}",
        "Num_of_Reviews": "1000",
        "Rating": "4.0",
        "Zip_Code": "10010",
        "Cuisine": "Italian",
        "City_Region": "Manhattan"
    },
    {
        "Business_ID": "Ve6GVzzJpR5QIIPdcn6ViQ",
        "Name": "Mercato",
        "Address": "352 W 39th St",
        "Coordinates": "{'latitude': 40.75619, 'longitude': -73.9937}",
        "Num_of_Reviews": "1027",
        "Rating": "4.0",
        "Zip_Code": "10018",
        "Cuisine": "Italian",
        "City_Region": "Manhattan"
    },
    {
        "Business_ID": "q3_FgDWWuXcVGiNuo_OPBQ",
        "Name": "Fiaschetteria Pistoia",
        "Address": "647 E 11th St",
        "Coordinates": "{'latitude': 40.72666, 'longitude': -73.9773}",
        "Num_of_Reviews": "246",
        "Rating": "4.0",
        "Zip_Code": "10009",
        "Cuisine": "Italian",
        "City_Region": "Manhattan"
    },
    {
        "Business_ID": "GjEE8vvjqb7eeHA3BGNxAw",
        "Name": "Barolo East",
        "Address": "214 E 49th St",
        "Coordinates": "{'latitude': 40.75481, 'longitude': -73.97059}",
        "Num_of_Reviews": "247",
        "Rating": "4.5",
        "Zip_Code": "10017",
        "Cuisine": "Italian",
        "City_Region": "Manhattan"
    },
    {
        "Business_ID": "dc3hkLkAqCSxDWQzrx-g9A",
        "Name": "Quality Italian",
        "Address": "57 W 57th St",
        "Coordinates": "{'latitude': 40.7644044527436, 'longitude': -73.9767805051616}",
        "Num_of_Reviews": "1331",
        "Rating": "4.0",
        "Zip_Code": "10019",
        "Cuisine": "Italian",
        "City_Region": "Manhattan"
    },
    {
        "Business_ID": "z7H9ApIGopnDnQaglnPTzg",
        "Name": "Allora Ristorante",
        "Address": "145 E 47th St",
        "Coordinates": "{'latitude': 40.75433, 'longitude': -73.97277}",
        "Num_of_Reviews": "753",
        "Rating": "4.5",
        "Zip_Code": "10017",
        "Cuisine": "Italian",
        "City_Region": "Manhattan"
    },
    {
        "Business_ID": "Zp-K3ztVTzR-LrWwl_CBgA",
        "Name": "La Pecora Bianca",
        "Address": "20 W 40th St",
        "Coordinates": "{'latitude': 40.7525275894982, 'longitude': -73.9829860255122}",
        "Num_of_Reviews": "181",
        "Rating": "4.0",
        "Zip_Code": "10018",
        "Cuisine": "Italian",
        "City_Region": "Manhattan"
    },
    {
        "Business_ID": "mTWlEiCUEBlxBAkIikkB1A",
        "Name": "Carmine's Italian Restaurant - Upper West Side",
        "Address": "2450 Broadway",
        "Coordinates": "{'latitude': 40.791077, 'longitude': -73.973763}",
        "Num_of_Reviews": "1692",
        "Rating": "4.0",
        "Zip_Code": "10024",
        "Cuisine": "Italian",
        "City_Region": "Manhattan"
    },
    {
        "Business_ID": "zRXMvxUX_rOliKZPpkWi_g",
        "Name": "Valerie",
        "Address": "45 W 45th St between 5th & 6th Ave",
        "Coordinates": "{'latitude': 40.756326, 'longitude': -73.981117}",
        "Num_of_Reviews": "600",
        "Rating": "4.5",
        "Zip_Code": "10036",
        "Cuisine": "Italian",
        "City_Region": "Manhattan"
    },
    {
        "Business_ID": "IErfGS0DASSJfYU73m0Sqg",
        "Name": "Malatesta Trattoria",
        "Address": "649 Washington St",
        "Coordinates": "{'latitude': 40.73285, 'longitude': -74.00847}",
        "Num_of_Reviews": "1339",
        "Rating": "4.0",
        "Zip_Code": "10014",
        "Cuisine": "Italian",
        "City_Region": "Manhattan"
    },
    {
        "Business_ID": "5F9kZPnAleDYqCeCyvGJPA",
        "Name": "Bad Roman",
        "Address": "10 Columbus Cir",
        "Coordinates": "{'latitude': 40.768494, 'longitude': -73.983072}",
        "Num_of_Reviews": "7",
        "Rating": "4.5",
        "Zip_Code": "10019",
        "Cuisine": "Italian",
        "City_Region": "Manhattan"
    },
    {
        "Business_ID": "pk89jzL1RsE9U0thf_z6tw",
        "Name": "Locanda Verde",
        "Address": "377 Greenwich St",
        "Coordinates": "{'latitude': 40.7198601300801, 'longitude': -74.010039072422}",
        "Num_of_Reviews": "1815",
        "Rating": "4.0",
        "Zip_Code": "10013",
        "Cuisine": "Italian",
        "City_Region": "Manhattan"
    },
    {
        "Business_ID": "SCQ9B9jxqNHvJKQ-RagxaA",
        "Name": "SPES",
        "Address": "413 E 12th St",
        "Coordinates": "{'latitude': 40.72979, 'longitude': -73.98274}",
        "Num_of_Reviews": "29",
        "Rating": "4.5",
        "Zip_Code": "10009",
        "Cuisine": "Italian",
        "City_Region": "Manhattan"
    },
    {
        "Business_ID": "jDIVPYpxQAk1HUAi0NIlQw",
        "Name": "Pazza Notte",
        "Address": "1375 Avenue Of The Americas",
        "Coordinates": "{'latitude': 40.76348, 'longitude': -73.978091}",
        "Num_of_Reviews": "997",
        "Rating": "4.0",
        "Zip_Code": "10019",
        "Cuisine": "Italian",
        "City_Region": "Manhattan"
    },
    {
        "Business_ID": "IAbOg5Kd5AynOcbI8vGTwQ",
        "Name": "Aperitivo",
        "Address": "14 E 60th St",
        "Coordinates": "{'latitude': 40.76431314475945, 'longitude': -73.9717568}",
        "Num_of_Reviews": "52",
        "Rating": "4.5",
        "Zip_Code": "10022",
        "Cuisine": "Italian",
        "City_Region": "Manhattan"
    },
    {
        "Business_ID": "7_hGsGEkHrjgAiYVjrCFnw",
        "Name": "Carbone",
        "Address": "181 Thompson St",
        "Coordinates": "{'latitude': 40.728, 'longitude': -74.0001497}",
        "Num_of_Reviews": "1553",
        "Rating": "4.0",
        "Zip_Code": "10012",
        "Cuisine": "Italian",
        "City_Region": "Manhattan"
    },
    {
        "Business_ID": "k5fd-RSdG4IuXnnGSQ5oOw",
        "Name": "San Marzano Pasta Fresca",
        "Address": "117 Second Ave",
        "Coordinates": "{'latitude': 40.727966, 'longitude': -73.988382}",
        "Num_of_Reviews": "1491",
        "Rating": "4.0",
        "Zip_Code": "10003",
        "Cuisine": "Italian",
        "City_Region": "Manhattan"
    },
    {
        "Business_ID": "jnHbdsqlTKlPcmJ8BCP9-g",
        "Name": "Via Carota",
        "Address": "51 Grove St",
        "Coordinates": "{'latitude': 40.733148231901204, 'longitude': -74.00366777251583}",
        "Num_of_Reviews": "837",
        "Rating": "4.0",
        "Zip_Code": "10014",
        "Cuisine": "Italian",
        "City_Region": "Manhattan"
    },
    {
        "Business_ID": "0axnkZlDiQcJVc06DDXxGQ",
        "Name": "Ristorante Il Melograno",
        "Address": "501 W 51st St",
        "Coordinates": "{'latitude': 40.7654289685161, 'longitude': -73.9914178848267}",
        "Num_of_Reviews": "369",
        "Rating": "4.0",
        "Zip_Code": "10019",
        "Cuisine": "Italian",
        "City_Region": "Manhattan"
    },
    {
        "Business_ID": "KCBfW6sWl9Gx-LvMff08jg",
        "Name": "Osteria Morini",
        "Address": "218 Lafayette St",
        "Coordinates": "{'latitude': 40.7219179851303, 'longitude': -73.9976472073402}",
        "Num_of_Reviews": "1272",
        "Rating": "4.0",
        "Zip_Code": "10012",
        "Cuisine": "Italian",
        "City_Region": "Manhattan"
    },
    {
        "Business_ID": "vVVmHacu2YAxKfpIjhfd1g",
        "Name": "Norma",
        "Address": "438 3rd Ave",
        "Coordinates": "{'latitude': 40.743553, 'longitude': -73.980026}",
        "Num_of_Reviews": "594",
        "Rating": "4.5",
        "Zip_Code": "10016",
        "Cuisine": "Italian",
        "City_Region": "Manhattan"
    },
    {
        "Business_ID": "yQ7K4uFnxXxpBVbnOSR8kA",
        "Name": "Polpette 71",
        "Address": "71 West 71st St",
        "Coordinates": "{'latitude': 40.77668, 'longitude': -73.97888}",
        "Num_of_Reviews": "232",
        "Rating": "4.0",
        "Zip_Code": "10023",
        "Cuisine": "Italian",
        "City_Region": "Manhattan"
    },
    {
        "Business_ID": "Z-QmxQZAJEy5GXqA82Bemw",
        "Name": "Da Toscano",
        "Address": "24 Minetta Ln",
        "Coordinates": "{'latitude': 40.730508, 'longitude': -74.001238}",
        "Num_of_Reviews": "98",
        "Rating": "4.5",
        "Zip_Code": "10012",
        "Cuisine": "Italian",
        "City_Region": "Manhattan"
    },
    {
        "Business_ID": "RPP_wHhM8yZYIP5W-YHk6Q",
        "Name": "Fumo",
        "Address": "2791 Broadway",
        "Coordinates": "{'latitude': 40.80285617298625, 'longitude': -73.968119}",
        "Num_of_Reviews": "209",
        "Rating": "4.0",
        "Zip_Code": "10025",
        "Cuisine": "Italian",
        "City_Region": "Manhattan"
    },
    {
        "Business_ID": "rFeNJtqgMWf2tWy-RB6jgg",
        "Name": "Torrisi",
        "Address": "275 Mulberry St",
        "Coordinates": "{'latitude': 40.7246154, 'longitude': -73.9952614}",
        "Num_of_Reviews": "24",
        "Rating": "4.5",
        "Zip_Code": "10012",
        "Cuisine": "Italian",
        "City_Region": "Manhattan"
    },
    {
        "Business_ID": "3qIISjUYn1tbqHXi7nCLXg",
        "Name": "Sofia Wine Bar",
        "Address": "242 E 50th St",
        "Coordinates": "{'latitude': 40.75502, 'longitude': -73.96913}",
        "Num_of_Reviews": "736",
        "Rating": "4.0",
        "Zip_Code": "10022",
        "Cuisine": "Italian",
        "City_Region": "Manhattan"
    },
    {
        "Business_ID": "TzVVPWK_4dhdSEpNqZwIhQ",
        "Name": "Toscana 49",
        "Address": "143 East 49 St",
        "Coordinates": "{'latitude': 40.7556957079225, 'longitude': -73.9717184007168}",
        "Num_of_Reviews": "324",
        "Rating": "4.0",
        "Zip_Code": "10017",
        "Cuisine": "Italian",
        "City_Region": "Manhattan"
    },
    {
        "Business_ID": "TWH4MjLtN1fKlF-7n6YXHg",
        "Name": "Lil Frankie's",
        "Address": "19 1st Ave",
        "Coordinates": "{'latitude': 40.723625, 'longitude': -73.988555}",
        "Num_of_Reviews": "1427",
        "Rating": "4.0",
        "Zip_Code": "10003",
        "Cuisine": "Italian",
        "City_Region": "Manhattan"
    },
    {
        "Business_ID": "zYaYXpmlo6QdnaPwuxWHhQ",
        "Name": "L'Osteria",
        "Address": "1219 Lexington Ave",
        "Coordinates": "{'latitude': 40.77704, 'longitude': -73.95721}",
        "Num_of_Reviews": "21",
        "Rating": "4.5",
        "Zip_Code": "10028",
        "Cuisine": "Italian",
        "City_Region": "Manhattan"
    },
    {
        "Business_ID": "V-FCEicobl5Su-R7EVJQNA",
        "Name": "La Lanterna Di Vittorio",
        "Address": "129 MacDougal St",
        "Coordinates": "{'latitude': 40.73069, 'longitude': -74.00015}",
        "Num_of_Reviews": "1632",
        "Rating": "4.0",
        "Zip_Code": "10012",
        "Cuisine": "Italian",
        "City_Region": "Manhattan"
    },
    {
        "Business_ID": "JwCnSW-RQ7_DxvbzWNO1hA",
        "Name": "Coletta",
        "Address": "365 3rd Ave",
        "Coordinates": "{'latitude': 40.74094, 'longitude': -73.98139}",
        "Num_of_Reviews": "165",
        "Rating": "4.5",
        "Zip_Code": "10016",
        "Cuisine": "Italian",
        "City_Region": "Manhattan"
    },
    {
        "Business_ID": "hzPBADaUBQEL30MGrvKsww",
        "Name": "Il Tinello Ristorante Italiano",
        "Address": "16 W 56th St",
        "Coordinates": "{'latitude': 40.76256, 'longitude': -73.97566}",
        "Num_of_Reviews": "319",
        "Rating": "4.5",
        "Zip_Code": "10019",
        "Cuisine": "Italian",
        "City_Region": "Manhattan"
    },
    {
        "Business_ID": "J0OeDwmh5JBhid0A5GvltA",
        "Name": "Il Corallo Trattoria",
        "Address": "176 Prince St",
        "Coordinates": "{'latitude': 40.7262073, 'longitude': -74.0018919}",
        "Num_of_Reviews": "1113",
        "Rating": "4.0",
        "Zip_Code": "10012",
        "Cuisine": "Italian",
        "City_Region": "Manhattan"
    },
    {
        "Business_ID": "lwfCl81r5a0mjxDNxNGC9w",
        "Name": "Il Buco",
        "Address": "47 Bond St",
        "Coordinates": "{'latitude': 40.72583, 'longitude': -73.99299}",
        "Num_of_Reviews": "778",
        "Rating": "4.0",
        "Zip_Code": "10012",
        "Cuisine": "Italian",
        "City_Region": "Manhattan"
    },
    {
        "Business_ID": "7cjT33LfYSk7vrRdEaSr4w",
        "Name": "Angeletto Restaurant",
        "Address": "890 2nd Ave",
        "Coordinates": "{'latitude': 40.753188, 'longitude': -73.969365}",
        "Num_of_Reviews": "291",
        "Rating": "4.5",
        "Zip_Code": "10017",
        "Cuisine": "Italian",
        "City_Region": "Manhattan"
    },
    {
        "Business_ID": "32VbG_XgkZIuye0PV-BxaA",
        "Name": "Zero Otto Nove",
        "Address": "15 W 21st St",
        "Coordinates": "{'latitude': 40.7407551035259, 'longitude': -73.9914887388588}",
        "Num_of_Reviews": "528",
        "Rating": "4.0",
        "Zip_Code": "10010",
        "Cuisine": "Italian",
        "City_Region": "Manhattan"
    },
    {
        "Business_ID": "yZJbealagfujEkgesAl2hA",
        "Name": "Lupa",
        "Address": "170 Thompson St",
        "Coordinates": "{'latitude': 40.7276, 'longitude': -74.000045}",
        "Num_of_Reviews": "1711",
        "Rating": "4.0",
        "Zip_Code": "10012",
        "Cuisine": "Italian",
        "City_Region": "Manhattan"
    },
    {
        "Business_ID": "562aZEpTDdYKDe5hWuDyFA",
        "Name": "La Gioconda",
        "Address": "226 E 53rd St",
        "Coordinates": "{'latitude': 40.75716, 'longitude': -73.96833}",
        "Num_of_Reviews": "193",
        "Rating": "4.0",
        "Zip_Code": "10022",
        "Cuisine": "Italian",
        "City_Region": "Manhattan"
    },
    {
        "Business_ID": "5EQOEAkH2Qh3Rv1TcnE7yA",
        "Name": "Fiaschetteria Pistoia",
        "Address": "114 Christopher St",
        "Coordinates": "{'latitude': 40.73316, 'longitude': -74.00537}",
        "Num_of_Reviews": "115",
        "Rating": "4.0",
        "Zip_Code": "10014",
        "Cuisine": "Italian",
        "City_Region": "Manhattan"
    },
    {
        "Business_ID": "15k7iqFbhf4h8L01yggLqg",
        "Name": "Song E Napule",
        "Address": "146 W Houston St",
        "Coordinates": "{'latitude': 40.72813, 'longitude': -74.00188}",
        "Num_of_Reviews": "671",
        "Rating": "4.5",
        "Zip_Code": "10012",
        "Cuisine": "Italian",
        "City_Region": "Manhattan"
    },
    {
        "Business_ID": "goqTQ4tOD-asC_ZJBW9l7w",
        "Name": "Patsy's Italian Restaurant",
        "Address": "236 W 56th St",
        "Coordinates": "{'latitude': 40.76553, 'longitude': -73.98274}",
        "Num_of_Reviews": "1084",
        "Rating": "4.0",
        "Zip_Code": "10019",
        "Cuisine": "Italian",
        "City_Region": "Manhattan"
    },
    {
        "Business_ID": "H_KyiRhwho8rdlw_R93_0Q",
        "Name": "Marea",
        "Address": "240 Central Park S",
        "Coordinates": "{'latitude': 40.7674213694566, 'longitude': -73.9810554368179}",
        "Num_of_Reviews": "2323",
        "Rating": "4.0",
        "Zip_Code": "10019",
        "Cuisine": "Italian",
        "City_Region": "Manhattan"
    },
    {
        "Business_ID": "z8TIY5xLeQptbXxZp3LpsA",
        "Name": "Felice 56",
        "Address": "15 W 56th St",
        "Coordinates": "{'latitude': 40.762862, 'longitude': -73.975396}",
        "Num_of_Reviews": "87",
        "Rating": "4.5",
        "Zip_Code": "10019",
        "Cuisine": "Italian",
        "City_Region": "Manhattan"
    },
    {
        "Business_ID": "zg9Jrtx9rqTXeaqufSOxHQ",
        "Name": "Masseria dei Vini",
        "Address": "887 9th Ave",
        "Coordinates": "{'latitude': 40.7684, 'longitude': -73.98558}",
        "Num_of_Reviews": "517",
        "Rating": "4.0",
        "Zip_Code": "10019",
        "Cuisine": "Italian",
        "City_Region": "Manhattan"
    },
    {
        "Business_ID": "K9Ur20N51Li3sAvaV9-6Ng",
        "Name": "Casa Limone",
        "Address": "20 East 49th St",
        "Coordinates": "{'latitude': 40.7573268, 'longitude': -73.97666174194207}",
        "Num_of_Reviews": "84",
        "Rating": "4.5",
        "Zip_Code": "10017",
        "Cuisine": "Italian",
        "City_Region": "Manhattan"
    },
    {
        "Business_ID": "MphfKkYFEe0BDQ6hZ0A5fA",
        "Name": "Gelso & Grand",
        "Address": "186 Grand St",
        "Coordinates": "{'latitude': 40.71958, 'longitude': -73.99734}",
        "Num_of_Reviews": "1366",
        "Rating": "4.5",
        "Zip_Code": "10013",
        "Cuisine": "Italian",
        "City_Region": "Manhattan"
    },
    {
        "Business_ID": "Rc1Ay4C2BgLBouuM92SAtQ",
        "Name": "Ferdi",
        "Address": "15 7th Ave S",
        "Coordinates": "{'latitude': 40.72995, 'longitude': -74.00449}",
        "Num_of_Reviews": "22",
        "Rating": "4.5",
        "Zip_Code": "10014",
        "Cuisine": "Italian",
        "City_Region": "Manhattan"
    },
    {
        "Business_ID": "Sp-vnk-waTvKblG_88M4TA",
        "Name": "Trapizzino",
        "Address": "144 Orchard St",
        "Coordinates": "{'latitude': 40.72043, 'longitude': -73.98894}",
        "Num_of_Reviews": "288",
        "Rating": "4.5",
        "Zip_Code": "10002",
        "Cuisine": "Italian",
        "City_Region": "Manhattan"
    },
    {
        "Business_ID": "fFIQ8Rx4x1Z34kFJcmlVzQ",
        "Name": "Cacio E Pepe",
        "Address": "1479 York Ave",
        "Coordinates": "{'latitude': 40.77090864674996, 'longitude': -73.95098168604862}",
        "Num_of_Reviews": "60",
        "Rating": "4.5",
        "Zip_Code": "10075",
        "Cuisine": "Italian",
        "City_Region": "Manhattan"
    },
    {
        "Business_ID": "wzHyRI6iW0rIY8rMb3KClA",
        "Name": "Felice",
        "Address": "240 Columbus Ave",
        "Coordinates": "{'latitude': 40.77697, 'longitude': -73.97933}",
        "Num_of_Reviews": "106",
        "Rating": "4.0",
        "Zip_Code": "10023",
        "Cuisine": "Italian",
        "City_Region": "Manhattan"
    },
    {
        "Business_ID": "6eqrk1wCQMww_ejze5gvsg",
        "Name": "Forsythia",
        "Address": "9 Stanton St",
        "Coordinates": "{'latitude': 40.7225353, 'longitude': -73.992492}",
        "Num_of_Reviews": "132",
        "Rating": "4.5",
        "Zip_Code": "10002",
        "Cuisine": "Italian",
        "City_Region": "Manhattan"
    },
    {
        "Business_ID": "H5bhfR5sL0I2w1csjI1uMA",
        "Name": "Piatto",
        "Address": "1-50 50th Ave",
        "Coordinates": "{'latitude': 40.7435117, 'longitude': -73.9590968}",
        "Num_of_Reviews": "234",
        "Rating": "4.0",
        "Zip_Code": "11101",
        "Cuisine": "Italian",
        "City_Region": "Queens"
    },
    {
        "Business_ID": "zwOAiVT4pAmpNGXzj-t5MA",
        "Name": "Lilia",
        "Address": "567 Union Ave",
        "Coordinates": "{'latitude': 40.71757, 'longitude': -73.95236}",
        "Num_of_Reviews": "1114",
        "Rating": "4.0",
        "Zip_Code": "11211",
        "Cuisine": "Italian",
        "City_Region": "Brooklyn"
    },
    {
        "Business_ID": "NAlOPUbFQVE0bUu8_wmBLQ",
        "Name": "Rezd\u00f4ra",
        "Address": "27 E 20th St",
        "Coordinates": "{'latitude': 40.73901, 'longitude': -73.9891}",
        "Num_of_Reviews": "572",
        "Rating": "4.0",
        "Zip_Code": "10003",
        "Cuisine": "Italian",
        "City_Region": "Manhattan"
    },
    {
        "Business_ID": "riykDqJw_NPGssLgqCeD-Q",
        "Name": "Aunt Jake's",
        "Address": "1555 2nd Ave",
        "Coordinates": "{'latitude': 40.774587, 'longitude': -73.954513}",
        "Num_of_Reviews": "179",
        "Rating": "4.5",
        "Zip_Code": "10028",
        "Cuisine": "Italian",
        "City_Region": "Manhattan"
    },
    {
        "Business_ID": "faukkggAc_tuJ4THYlf4fg",
        "Name": "La Masseria",
        "Address": "235 W 48th St",
        "Coordinates": "{'latitude': 40.760868632784, 'longitude': -73.986348802868}",
        "Num_of_Reviews": "691",
        "Rating": "4.0",
        "Zip_Code": "10036",
        "Cuisine": "Italian",
        "City_Region": "Manhattan"
    },
    {
        "Business_ID": "RXCCofQw1EjTcSN0ZeXfRA",
        "Name": "Risotteria Melotti NYC",
        "Address": "309 E 5th St",
        "Coordinates": "{'latitude': 40.726673363853, 'longitude': -73.9880919456482}",
        "Num_of_Reviews": "374",
        "Rating": "4.5",
        "Zip_Code": "10003",
        "Cuisine": "Italian",
        "City_Region": "Manhattan"
    },
    {
        "Business_ID": "a4WZUTKn90dOkeY38JHNjQ",
        "Name": "Aurora",
        "Address": "70 Grand St",
        "Coordinates": "{'latitude': 40.715621, 'longitude': -73.964757}",
        "Num_of_Reviews": "792",
        "Rating": "4.0",
        "Zip_Code": "11249",
        "Cuisine": "Italian",
        "City_Region": "Brooklyn"
    },
    {
        "Business_ID": "hDj_0pbi4mFR5p1H1w6igw",
        "Name": "Misirizzi",
        "Address": "36 E 4th St",
        "Coordinates": "{'latitude': 40.7272, 'longitude': -73.99228}",
        "Num_of_Reviews": "189",
        "Rating": "4.5",
        "Zip_Code": "10003",
        "Cuisine": "Italian",
        "City_Region": "Manhattan"
    },
    {
        "Business_ID": "DGhWO1sUWydVeR5j5ZZaMw",
        "Name": "La Grande Boucherie",
        "Address": "145 W 53rd St",
        "Coordinates": "{'latitude': 40.7626274, 'longitude': -73.98084109999999}",
        "Num_of_Reviews": "2056",
        "Rating": "4.5",
        "Zip_Code": "10019",
        "Cuisine": "Italian",
        "City_Region": "Manhattan"
    },
    {
        "Business_ID": "9K0run3oObR0YT4jaOEvWg",
        "Name": "L'Angeletto",
        "Address": "327 2nd Ave",
        "Coordinates": "{'latitude': 40.73541417, 'longitude': -73.982956}",
        "Num_of_Reviews": "83",
        "Rating": "4.5",
        "Zip_Code": "10003",
        "Cuisine": "Italian",
        "City_Region": "Manhattan"
    },
    {
        "Business_ID": "tRIHhPKryUZ56SfIz6mLiA",
        "Name": "Angelo's Coal Oven Pizzeria",
        "Address": "117 W 57th St",
        "Coordinates": "{'latitude': 40.76492, 'longitude': -73.97794}",
        "Num_of_Reviews": "1125",
        "Rating": "4.0",
        "Zip_Code": "10019",
        "Cuisine": "Italian",
        "City_Region": "Manhattan"
    },
    {
        "Business_ID": "hSpZSqElyjHTfE4lQJ97Cg",
        "Name": "Mareluna",
        "Address": "137 Sullivan St",
        "Coordinates": "{'latitude': 40.726787, 'longitude': -74.001836}",
        "Num_of_Reviews": "64",
        "Rating": "4.5",
        "Zip_Code": "10012",
        "Cuisine": "Italian",
        "City_Region": "Manhattan"
    },
    {
        "Business_ID": "B2X53VuOuLyXe0OsGY-ZzA",
        "Name": "La Pecora Bianca",
        "Address": "817 Washington St",
        "Coordinates": "{'latitude': 40.73959, 'longitude': -74.00775}",
        "Num_of_Reviews": "36",
        "Rating": "4.5",
        "Zip_Code": "10014",
        "Cuisine": "Italian",
        "City_Region": "Manhattan"
    },
    {
        "Business_ID": "xKIv_b2L2pUHmsoJ-xOepg",
        "Name": "Gran Morsi",
        "Address": "22 Warren St",
        "Coordinates": "{'latitude': 40.714312, 'longitude': -74.007791}",
        "Num_of_Reviews": "462",
        "Rating": "4.5",
        "Zip_Code": "10007",
        "Cuisine": "Italian",
        "City_Region": "Manhattan"
    },
    {
        "Business_ID": "hkooeEkd3oPsLD6JJrYpjA",
        "Name": "Caf\u00e9 Luce",
        "Address": "235 E 53rd St",
        "Coordinates": "{'latitude': 40.757323, 'longitude': -73.967928}",
        "Num_of_Reviews": "98",
        "Rating": "4.5",
        "Zip_Code": "10022",
        "Cuisine": "Italian",
        "City_Region": "Manhattan"
    },
    {
        "Business_ID": "C8Ctyq7pXOPESK8cz_X2CA",
        "Name": "Pomodoro Rosso",
        "Address": "229 Columbus Ave",
        "Coordinates": "{'latitude': 40.776398, 'longitude': -73.979288}",
        "Num_of_Reviews": "379",
        "Rating": "4.0",
        "Zip_Code": "10023",
        "Cuisine": "Italian",
        "City_Region": "Manhattan"
    },
    {
        "Business_ID": "6Z5OWpaeGGazJHR4LfThsw",
        "Name": "Palma",
        "Address": "28 Cornelia St",
        "Coordinates": "{'latitude': 40.73115, 'longitude': -74.00233}",
        "Num_of_Reviews": "826",
        "Rating": "4.0",
        "Zip_Code": "10014",
        "Cuisine": "Italian",
        "City_Region": "Manhattan"
    },
    {
        "Business_ID": "kr5fRwdHtVwPPwSJxm9Fkg",
        "Name": "Il Posto Accanto",
        "Address": "190 E 2nd St",
        "Coordinates": "{'latitude': 40.72238, 'longitude': -73.98403}",
        "Num_of_Reviews": "299",
        "Rating": "4.0",
        "Zip_Code": "10009",
        "Cuisine": "Italian",
        "City_Region": "Manhattan"
    },
    {
        "Business_ID": "rZ9OFoSqy8u4WECfh--ylg",
        "Name": "Marta",
        "Address": "29 E 29th St",
        "Coordinates": "{'latitude': 40.7445882, 'longitude': -73.9847936}",
        "Num_of_Reviews": "1000",
        "Rating": "4.0",
        "Zip_Code": "10016",
        "Cuisine": "Italian",
        "City_Region": "Manhattan"
    },
    {
        "Business_ID": "d15lwNLOlLSeaAYqPadntw",
        "Name": "Sam's Place",
        "Address": "132 E 39th St",
        "Coordinates": "{'latitude': 40.749270880468, 'longitude': -73.977082744053}",
        "Num_of_Reviews": "292",
        "Rating": "4.0",
        "Zip_Code": "10016",
        "Cuisine": "Italian",
        "City_Region": "Manhattan"
    },
    {
        "Business_ID": "kMQ0IXs5mdjDeUvpWSHgRg",
        "Name": "Il Mulino New York - Tribeca",
        "Address": "361 Greenwich St",
        "Coordinates": "{'latitude': 40.71904, 'longitude': -74.01016}",
        "Num_of_Reviews": "50",
        "Rating": "4.0",
        "Zip_Code": "10013",
        "Cuisine": "Italian",
        "City_Region": "Manhattan"
    },
    {
        "Business_ID": "lP4ynyBoeFPywLg78XkMmw",
        "Name": "Cibo e Vino",
        "Address": "2418 Broadway",
        "Coordinates": "{'latitude': 40.79000179662657, 'longitude': -73.97485616653263}",
        "Num_of_Reviews": "398",
        "Rating": "4.0",
        "Zip_Code": "10024",
        "Cuisine": "Italian",
        "City_Region": "Manhattan"
    },
    {
        "Business_ID": "yi6jIxzHo-nbAOG4KWuqcw",
        "Name": "Maialino",
        "Address": "30 E 30th St",
        "Coordinates": "{'latitude': 40.7448869, 'longitude': -73.984231}",
        "Num_of_Reviews": "1416",
        "Rating": "4.0",
        "Zip_Code": "10016",
        "Cuisine": "Italian",
        "City_Region": "Manhattan"
    },
    {
        "Business_ID": "RbiXVG4tzpC3zuILadyPIQ",
        "Name": "La Pecora Bianca",
        "Address": "359 Columbus Ave",
        "Coordinates": "{'latitude': 40.78049101969648, 'longitude': -73.9763467}",
        "Num_of_Reviews": "31",
        "Rating": "4.0",
        "Zip_Code": "10024",
        "Cuisine": "Italian",
        "City_Region": "Manhattan"
    },
    {
        "Business_ID": "xsQTIeq-WLkp4ParkTQpMQ",
        "Name": "PizzArte",
        "Address": "69 W 55th St",
        "Coordinates": "{'latitude': 40.7629335072372, 'longitude': -73.9776668697596}",
        "Num_of_Reviews": "1249",
        "Rating": "4.0",
        "Zip_Code": "10019",
        "Cuisine": "Italian",
        "City_Region": "Manhattan"
    },
    {
        "Business_ID": "FNxOWxts63oDRKwy9Pbfzw",
        "Name": "Tarallucci E Vino - Nomad",
        "Address": "44 E 28th St",
        "Coordinates": "{'latitude': 40.74345604900017, 'longitude': -73.98470300895319}",
        "Num_of_Reviews": "196",
        "Rating": "4.0",
        "Zip_Code": "10016",
        "Cuisine": "Italian",
        "City_Region": "Manhattan"
    },
    {
        "Business_ID": "XQKUqU1vPvgnapxmmBI55Q",
        "Name": "Maestro Pasta",
        "Address": "102 MacDougal St",
        "Coordinates": "{'latitude': 40.72934, 'longitude': -74.00093}",
        "Num_of_Reviews": "42",
        "Rating": "4.5",
        "Zip_Code": "10012",
        "Cuisine": "Italian",
        "City_Region": "Manhattan"
    },
    {
        "Business_ID": "FRp1NwIyp6tkDU986cJkXQ",
        "Name": "Piccola Cucina Estiatorio",
        "Address": "75 Thompson St",
        "Coordinates": "{'latitude': 40.7246, 'longitude': -74.0029799}",
        "Num_of_Reviews": "243",
        "Rating": "4.5",
        "Zip_Code": "10012",
        "Cuisine": "Italian",
        "City_Region": "Manhattan"
    },
    {
        "Business_ID": "FKzpfWUpyupl4q74Jt8fTA",
        "Name": "Don Antonio",
        "Address": "309 W 50th St",
        "Coordinates": "{'latitude': 40.762711, 'longitude': -73.986708}",
        "Num_of_Reviews": "1630",
        "Rating": "4.0",
        "Zip_Code": "10019",
        "Cuisine": "Italian",
        "City_Region": "Manhattan"
    },
    {
        "Business_ID": "MH08_pIRKsUSwfkVYxUE7w",
        "Name": "Vinater\u00eda",
        "Address": "2211 Frederick Douglass Blvd",
        "Coordinates": "{'latitude': 40.80668, 'longitude': -73.95395}",
        "Num_of_Reviews": "599",
        "Rating": "4.0",
        "Zip_Code": "10026",
        "Cuisine": "Italian",
        "City_Region": "Manhattan"
    },
    {
        "Business_ID": "JBthOvTegHbrLDiVaCAy5Q",
        "Name": "Bigoi Venezia",
        "Address": "1415 2nd Ave",
        "Coordinates": "{'latitude': 40.770036, 'longitude': -73.9577755}",
        "Num_of_Reviews": "334",
        "Rating": "4.5",
        "Zip_Code": "10021",
        "Cuisine": "Italian",
        "City_Region": "Manhattan"
    },
    {
        "Business_ID": "QObHX0yR6zd0WfksRDbJTA",
        "Name": "Becco",
        "Address": "355 W 46th St",
        "Coordinates": "{'latitude': 40.76083, 'longitude': -73.98981}",
        "Num_of_Reviews": "3079",
        "Rating": "3.5",
        "Zip_Code": "10036",
        "Cuisine": "Italian",
        "City_Region": "Manhattan"
    },
    {
        "Business_ID": "twHJyFgUSd7wzioKQjE7Jw",
        "Name": "Galli",
        "Address": "45 Mercer St",
        "Coordinates": "{'latitude': 40.72161, 'longitude': -74.00127}",
        "Num_of_Reviews": "1039",
        "Rating": "4.0",
        "Zip_Code": "10013",
        "Cuisine": "Italian",
        "City_Region": "Manhattan"
    },
    {
        "Business_ID": "EBK0OkVMBg_n_KxAU_4DZg",
        "Name": "Double Zero",
        "Address": "65 2nd Ave",
        "Coordinates": "{'latitude': 40.7261288, 'longitude': -73.9896645}",
        "Num_of_Reviews": "609",
        "Rating": "4.5",
        "Zip_Code": "10003",
        "Cuisine": "Italian",
        "City_Region": "Manhattan"
    },
    {
        "Business_ID": "XHhRAKq6DArQXYhkgvwaow",
        "Name": "Spaghetti Incident",
        "Address": "231 Eldridge St",
        "Coordinates": "{'latitude': 40.7223153441439, 'longitude': -73.9899454318763}",
        "Num_of_Reviews": "646",
        "Rating": "4.0",
        "Zip_Code": "10002",
        "Cuisine": "Italian",
        "City_Region": "Manhattan"
    },
    {
        "Business_ID": "EDucGBSfQ0YIbxdHS-KnCg",
        "Name": "Sagaponack",
        "Address": "4 W 22nd St",
        "Coordinates": "{'latitude': 40.741019, 'longitude': -73.990692}",
        "Num_of_Reviews": "225",
        "Rating": "4.5",
        "Zip_Code": "10010",
        "Cuisine": "Italian",
        "City_Region": "Manhattan"
    },
    {
        "Business_ID": "IxwuIDcpRa7EpQs7V481Ww",
        "Name": "Il Gattopardo",
        "Address": "13-15 W 54th St",
        "Coordinates": "{'latitude': 40.7614994602915, 'longitude': -73.976308999227}",
        "Num_of_Reviews": "225",
        "Rating": "4.0",
        "Zip_Code": "10019",
        "Cuisine": "Italian",
        "City_Region": "Manhattan"
    },
    {
        "Business_ID": "ry0nAQiUn8bpNAruY_5wfw",
        "Name": "Scalino",
        "Address": "659 Manhattan Ave",
        "Coordinates": "{'latitude': 40.7244699, 'longitude': -73.95151}",
        "Num_of_Reviews": "298",
        "Rating": "4.5",
        "Zip_Code": "11222",
        "Cuisine": "Italian",
        "City_Region": "Brooklyn"
    },
    {
        "Business_ID": "rJJiGJx3kfMAxtD7P7okHQ",
        "Name": "Celeste Restaurant",
        "Address": "502 Amsterdam Ave",
        "Coordinates": "{'latitude': 40.78666, 'longitude': -73.97599}",
        "Num_of_Reviews": "964",
        "Rating": "3.5",
        "Zip_Code": "10024",
        "Cuisine": "Italian",
        "City_Region": "Manhattan"
    },
    {
        "Business_ID": "Fit_iIDn__NPVZpVlKFBFQ",
        "Name": "Osteria 106",
        "Address": "53 W 106 St",
        "Coordinates": "{'latitude': 40.79894, 'longitude': -73.96174}",
        "Num_of_Reviews": "198",
        "Rating": "4.5",
        "Zip_Code": "10025",
        "Cuisine": "Italian",
        "City_Region": "Manhattan"
    },
    {
        "Business_ID": "MeUq9lombxM9alxs64tejQ",
        "Name": "Pepolino Restaurant",
        "Address": "281 W Broadway",
        "Coordinates": "{'latitude': 40.720756, 'longitude': -74.004885}",
        "Num_of_Reviews": "617",
        "Rating": "4.0",
        "Zip_Code": "10013",
        "Cuisine": "Italian",
        "City_Region": "Manhattan"
    },
    {
        "Business_ID": "9T8Ootw4aqmaO42gI-wBSA",
        "Name": "Botte UES",
        "Address": "1606 1st Ave",
        "Coordinates": "{'latitude': 40.775079766410514, 'longitude': -73.95047928303218}",
        "Num_of_Reviews": "94",
        "Rating": "4.0",
        "Zip_Code": "10028",
        "Cuisine": "Italian",
        "City_Region": "Manhattan"
    },
    {
        "Business_ID": "dh5r9-SbN8xJ76XvnayWLQ",
        "Name": "Giano Restaurant",
        "Address": "126 E 7th St",
        "Coordinates": "{'latitude': 40.7262256596862, 'longitude': -73.9840574049125}",
        "Num_of_Reviews": "695",
        "Rating": "4.5",
        "Zip_Code": "10009",
        "Cuisine": "Italian",
        "City_Region": "Manhattan"
    },
    {
        "Business_ID": "qKfD10PsDKP_9B7O1_7oJQ",
        "Name": "All'Antico Vinaio",
        "Address": "729 8th Ave",
        "Coordinates": "{'latitude': 40.7597, 'longitude': -73.98823}",
        "Num_of_Reviews": "214",
        "Rating": "4.5",
        "Zip_Code": "10036",
        "Cuisine": "Italian",
        "City_Region": "Manhattan"
    },
    {
        "Business_ID": "yc4vsT-Q4Ej1_9hr94DxkQ",
        "Name": "Sotto 13",
        "Address": "140 W 13th St",
        "Coordinates": "{'latitude': 40.7372, 'longitude': -73.99919}",
        "Num_of_Reviews": "1032",
        "Rating": "4.0",
        "Zip_Code": "10011",
        "Cuisine": "Italian",
        "City_Region": "Manhattan"
    },
    {
        "Business_ID": "f_1BjTChf6bobreSRpqhsw",
        "Name": "Arco Cafe",
        "Address": "886 Amsterdam Ave",
        "Coordinates": "{'latitude': 40.7988462, 'longitude': -73.967065}",
        "Num_of_Reviews": "340",
        "Rating": "4.5",
        "Zip_Code": "10025",
        "Cuisine": "Italian",
        "City_Region": "Manhattan"
    },
    {
        "Business_ID": "RG5atiZtuNtpDu6GrNUQGw",
        "Name": "NORMA Gastronomia Siciliana",
        "Address": "801 9th Ave",
        "Coordinates": "{'latitude': 40.76563298237293, 'longitude': -73.98769143895947}",
        "Num_of_Reviews": "86",
        "Rating": "4.0",
        "Zip_Code": "10019",
        "Cuisine": "Italian",
        "City_Region": "Manhattan"
    },
    {
        "Business_ID": "JOvcJqD5eCFrGjFa6k7vpQ",
        "Name": "Zia Maria - Chelsea",
        "Address": "318 W 23rd St",
        "Coordinates": "{'latitude': 40.7454863, 'longitude': -73.9993392}",
        "Num_of_Reviews": "306",
        "Rating": "4.0",
        "Zip_Code": "10011",
        "Cuisine": "Italian",
        "City_Region": "Manhattan"
    },
    {
        "Business_ID": "l7OsDvMOO3ji3fg0nT0QzA",
        "Name": "Tony's Di Napoli",
        "Address": "1081 3rd Ave",
        "Coordinates": "{'latitude': 40.764385574147596, 'longitude': -73.96426247506157}",
        "Num_of_Reviews": "820",
        "Rating": "4.0",
        "Zip_Code": "10065",
        "Cuisine": "Italian",
        "City_Region": "Manhattan"
    },
    {
        "Business_ID": "kQuTJxm0KAX1AsS46vhC_g",
        "Name": "Barbuto",
        "Address": "113 Horatio St",
        "Coordinates": "{'latitude': 40.73885, 'longitude': -74.00932}",
        "Num_of_Reviews": "80",
        "Rating": "4.0",
        "Zip_Code": "10014",
        "Cuisine": "Italian",
        "City_Region": "Manhattan"
    },
    {
        "Business_ID": "aJJlY5xvqS180wtRIHEWqA",
        "Name": "Cotenna",
        "Address": "21 Bedford St",
        "Coordinates": "{'latitude': 40.72903, 'longitude': -74.00357}",
        "Num_of_Reviews": "459",
        "Rating": "4.0",
        "Zip_Code": "10014",
        "Cuisine": "Italian",
        "City_Region": "Manhattan"
    },
    {
        "Business_ID": "eMSTTuOUlKEnSOr8lPp3Xg",
        "Name": "Ammazzacaff\u00e8",
        "Address": "702 Grand St",
        "Coordinates": "{'latitude': 40.7113172, 'longitude': -73.9446243}",
        "Num_of_Reviews": "282",
        "Rating": "4.5",
        "Zip_Code": "11211",
        "Cuisine": "Italian",
        "City_Region": "Brooklyn"
    },
    {
        "Business_ID": "abZ-mEvF6Tj4hfyIg0lKwQ",
        "Name": "Vite Vinosteria",
        "Address": "31-05 34th St",
        "Coordinates": "{'latitude': 40.7629734277725, 'longitude': -73.92119564116}",
        "Num_of_Reviews": "680",
        "Rating": "4.5",
        "Zip_Code": "11106",
        "Cuisine": "Italian",
        "City_Region": "Queens"
    },
    {
        "Business_ID": "lgFApPVpbXnsIFw1CRJORw",
        "Name": "Cellini Restaurant",
        "Address": "65 E 54th St",
        "Coordinates": "{'latitude': 40.760115, 'longitude': -73.972686}",
        "Num_of_Reviews": "179",
        "Rating": "4.0",
        "Zip_Code": "10022",
        "Cuisine": "Italian",
        "City_Region": "Manhattan"
    },
    {
        "Business_ID": "a0IET3_yCFcO36OqGSsisg",
        "Name": "Eataly NYC Flatiron",
        "Address": "200 5th Ave",
        "Coordinates": "{'latitude': 40.74200824886595, 'longitude': -73.98993910744127}",
        "Num_of_Reviews": "6036",
        "Rating": "4.0",
        "Zip_Code": "10010",
        "Cuisine": "Italian",
        "City_Region": "Manhattan"
    },
    {
        "Business_ID": "-hUvO0C0A-pGZdiSKvjoFw",
        "Name": "Babbo",
        "Address": "110 Waverly Pl",
        "Coordinates": "{'latitude': 40.732283, 'longitude': -73.999284}",
        "Num_of_Reviews": "2588",
        "Rating": "4.0",
        "Zip_Code": "10011",
        "Cuisine": "Italian",
        "City_Region": "Manhattan"
    },
    {
        "Business_ID": "f8ipr8Wdy1_wHhw7JgNqPQ",
        "Name": "Da Claudio",
        "Address": "21 Ann St",
        "Coordinates": "{'latitude': 40.71087, 'longitude': -74.00753}",
        "Num_of_Reviews": "606",
        "Rating": "4.5",
        "Zip_Code": "10038",
        "Cuisine": "Italian",
        "City_Region": "Manhattan"
    },
    {
        "Business_ID": "ifIfq2EwEohCgoKnG68_LA",
        "Name": "Villa Berulia",
        "Address": "107 E 34th St",
        "Coordinates": "{'latitude': 40.7467827, 'longitude': -73.9806507}",
        "Num_of_Reviews": "192",
        "Rating": "4.5",
        "Zip_Code": "10016",
        "Cuisine": "Italian",
        "City_Region": "Manhattan"
    },
    {
        "Business_ID": "ZamvzoxEKiJEboO0ZUdogw",
        "Name": "Amici Ristorante",
        "Address": "165 Mulberry St",
        "Coordinates": "{'latitude': 40.71981, 'longitude': -73.99722}",
        "Num_of_Reviews": "175",
        "Rating": "4.5",
        "Zip_Code": "10013",
        "Cuisine": "Italian",
        "City_Region": "Manhattan"
    },
    {
        "Business_ID": "ZVa3-O6LMxZXSpKG0J1h-w",
        "Name": "Piccolo Angolo Restaurant",
        "Address": "621 Hudson St",
        "Coordinates": "{'latitude': 40.7378601855952, 'longitude': -74.0058052539825}",
        "Num_of_Reviews": "603",
        "Rating": "4.0",
        "Zip_Code": "10014",
        "Cuisine": "Italian",
        "City_Region": "Manhattan"
    },
    {
        "Business_ID": "3FJjOq78eeqakDCsJHqJug",
        "Name": "Sotto La Luna",
        "Address": "34-39 31st St",
        "Coordinates": "{'latitude': 40.75821891908545, 'longitude': -73.92818819919232}",
        "Num_of_Reviews": "65",
        "Rating": "4.5",
        "Zip_Code": "11106",
        "Cuisine": "Italian",
        "City_Region": "Queens"
    },
    {
        "Business_ID": "T5dgMOv1iNY-z2ibeFQZgA",
        "Name": "Il Monello",
        "Address": "337 East 49th St",
        "Coordinates": "{'latitude': 40.753779846700596, 'longitude': -73.9674672}",
        "Num_of_Reviews": "6",
        "Rating": "5.0",
        "Zip_Code": "10017",
        "Cuisine": "Italian",
        "City_Region": "Manhattan"
    },
    {
        "Business_ID": "cl97uG2_QtiMBah-_s9w7g",
        "Name": "Il Divo",
        "Address": "1347 2nd Ave At E 71st St",
        "Coordinates": "{'latitude': 40.76816, 'longitude': -73.959204}",
        "Num_of_Reviews": "100",
        "Rating": "4.5",
        "Zip_Code": "10021",
        "Cuisine": "Italian",
        "City_Region": "Manhattan"
    },
    {
        "Business_ID": "CfYxlqO3W3PCE7hVhYJNyA",
        "Name": "Il Gradino",
        "Address": "808 Lexington Ave",
        "Coordinates": "{'latitude': 40.76436, 'longitude': -73.96681}",
        "Num_of_Reviews": "19",
        "Rating": "4.0",
        "Zip_Code": "10065",
        "Cuisine": "Italian",
        "City_Region": "Manhattan"
    },
    {
        "Business_ID": "1ZKbUeFAs0ltSnAYq4ELKw",
        "Name": "Trattoria L'incontro",
        "Address": "21-76 31st St",
        "Coordinates": "{'latitude': 40.77648209257472, 'longitude': -73.91059675544598}",
        "Num_of_Reviews": "1091",
        "Rating": "4.5",
        "Zip_Code": "11105",
        "Cuisine": "Italian",
        "City_Region": "Queens"
    },
    {
        "Business_ID": "NlmP5x_Ykznd55Dc85ChUg",
        "Name": "Nittis",
        "Address": "523 9th Ave",
        "Coordinates": "{'latitude': 40.7567, 'longitude': -73.99411}",
        "Num_of_Reviews": "305",
        "Rating": "4.5",
        "Zip_Code": "10018",
        "Cuisine": "Italian",
        "City_Region": "Manhattan"
    },
    {
        "Business_ID": "CFR-HzVHKWRMpMAR3LAhzg",
        "Name": "Montesacro Pinseria Brooklyn",
        "Address": "432 Union Ave",
        "Coordinates": "{'latitude': 40.71338, 'longitude': -73.95136}",
        "Num_of_Reviews": "224",
        "Rating": "4.5",
        "Zip_Code": "11211",
        "Cuisine": "Italian",
        "City_Region": "Brooklyn"
    },
    {
        "Business_ID": "fuS39acPaRi38DhSSwEI4Q",
        "Name": "Felice 15 Gold",
        "Address": "15 Gold St",
        "Coordinates": "{'latitude': 40.70789, 'longitude': -74.00712}",
        "Num_of_Reviews": "440",
        "Rating": "4.0",
        "Zip_Code": "10038",
        "Cuisine": "Italian",
        "City_Region": "Manhattan"
    },
    {
        "Business_ID": "WYhRkUATHRyXZrE55MArbA",
        "Name": "Scalini Fedeli",
        "Address": "165 Duane St",
        "Coordinates": "{'latitude': 40.71741473500126, 'longitude': -74.00943235989747}",
        "Num_of_Reviews": "350",
        "Rating": "4.5",
        "Zip_Code": "10013",
        "Cuisine": "Italian",
        "City_Region": "Manhattan"
    },
    {
        "Business_ID": "E48WbksxAk19a8vjJRVIVQ",
        "Name": "Ramerino Italian Prime",
        "Address": "16 E 39th St",
        "Coordinates": "{'latitude': 40.75107, 'longitude': -73.98135}",
        "Num_of_Reviews": "37",
        "Rating": "5.0",
        "Zip_Code": "10016",
        "Cuisine": "Italian",
        "City_Region": "Manhattan"
    },
    {
        "Business_ID": "eWMuXtaBzf0H5u0Vf_zpjw",
        "Name": "Ciccio",
        "Address": "190 6th Ave",
        "Coordinates": "{'latitude': 40.7263263267119, 'longitude': -74.0034471165676}",
        "Num_of_Reviews": "307",
        "Rating": "4.5",
        "Zip_Code": "10013",
        "Cuisine": "Italian",
        "City_Region": "Manhattan"
    },
    {
        "Business_ID": "OwDRIugcA4LkUuTRqpJsog",
        "Name": "Naked Dog",
        "Address": "47 Java St",
        "Coordinates": "{'latitude': 40.7312720665479, 'longitude': -73.9593493647979}",
        "Num_of_Reviews": "272",
        "Rating": "4.5",
        "Zip_Code": "11222",
        "Cuisine": "Italian",
        "City_Region": "Brooklyn"
    },
    {
        "Business_ID": "nBy8KtcUHktPFKw-VClG1A",
        "Name": "La Pecora Bianca",
        "Address": "950 2nd Ave",
        "Coordinates": "{'latitude': 40.75495, 'longitude': -73.9682718}",
        "Num_of_Reviews": "375",
        "Rating": "4.0",
        "Zip_Code": "10022",
        "Cuisine": "Italian",
        "City_Region": "Manhattan"
    },
    {
        "Business_ID": "nSk_zCJESMKGLHyJTPPlZA",
        "Name": "Bottino",
        "Address": "246 10th Ave",
        "Coordinates": "{'latitude': 40.74848569625031, 'longitude': -74.00331301292165}",
        "Num_of_Reviews": "387",
        "Rating": "4.0",
        "Zip_Code": "10001",
        "Cuisine": "Italian",
        "City_Region": "Manhattan"
    },
    {
        "Business_ID": "-Gc5sTFxoXM3Tiv_dkSJZg",
        "Name": "Cecconi's Dumbo",
        "Address": "55 Water St",
        "Coordinates": "{'latitude': 40.7033063330116, 'longitude': -73.9916549604523}",
        "Num_of_Reviews": "1015",
        "Rating": "3.5",
        "Zip_Code": "11201",
        "Cuisine": "Italian",
        "City_Region": "Brooklyn"
    },
    {
        "Business_ID": "5Akss-swwfyoSVeIsDBbvw",
        "Name": "Basta Pasta",
        "Address": "37 W 17th St",
        "Coordinates": "{'latitude': 40.73881, 'longitude': -73.99407}",
        "Num_of_Reviews": "1509",
        "Rating": "4.0",
        "Zip_Code": "10011",
        "Cuisine": "Italian",
        "City_Region": "Manhattan"
    },
    {
        "Business_ID": "MTQpqHo-cCAPK7c9fd6zHw",
        "Name": "Il Mattone",
        "Address": "49 Beach St",
        "Coordinates": "{'latitude': 40.720799, 'longitude': -74.0091255}",
        "Num_of_Reviews": "108",
        "Rating": "4.5",
        "Zip_Code": "10013",
        "Cuisine": "Italian",
        "City_Region": "Manhattan"
    },
    {
        "Business_ID": "9iC39Z1YjZKbrrCANgzBXg",
        "Name": "Sergimmo Salumeria",
        "Address": "456 9th Ave",
        "Coordinates": "{'latitude': 40.754296, 'longitude': -73.995498}",
        "Num_of_Reviews": "719",
        "Rating": "4.0",
        "Zip_Code": "10018",
        "Cuisine": "Italian",
        "City_Region": "Manhattan"
    },
    {
        "Business_ID": "gyWc5qJRvu26LVQIShdR4Q",
        "Name": "Babbalucci",
        "Address": "331 Lenox Ave",
        "Coordinates": "{'latitude': 40.80894, 'longitude': -73.94496}",
        "Num_of_Reviews": "465",
        "Rating": "4.0",
        "Zip_Code": "10027",
        "Cuisine": "Italian",
        "City_Region": "Manhattan"
    },
    {
        "Business_ID": "d5ya04K-2A_hI3Xzqe1HeA",
        "Name": "Caffe Buon Gusto",
        "Address": "236 E 77th St",
        "Coordinates": "{'latitude': 40.77249, 'longitude': -73.95713}",
        "Num_of_Reviews": "663",
        "Rating": "4.0",
        "Zip_Code": "10075",
        "Cuisine": "Italian",
        "City_Region": "Manhattan"
    },
    {
        "Business_ID": "b6jOwyX4iaagw8YjXqq1sA",
        "Name": "Antonio's Trattoria",
        "Address": "2370 Belmont Ave",
        "Coordinates": "{'latitude': 40.854131, 'longitude': -73.886601}",
        "Num_of_Reviews": "1009",
        "Rating": "4.5",
        "Zip_Code": "10458",
        "Cuisine": "Italian",
        "City_Region": "Bronx"
    },
    {
        "Business_ID": "oUVX94JtKyLPXozC2hemCg",
        "Name": "Manetta's Ristorante",
        "Address": "1076 Jackson Ave",
        "Coordinates": "{'latitude': 40.7427, 'longitude': -73.95184}",
        "Num_of_Reviews": "446",
        "Rating": "4.0",
        "Zip_Code": "11101",
        "Cuisine": "Italian",
        "City_Region": "Queens"
    },
    {
        "Business_ID": "zDujEq9qZk13nBcG2PH4tA",
        "Name": "Il Falco",
        "Address": "21-50 44th Dr",
        "Coordinates": "{'latitude': 40.7476595714373, 'longitude': -73.9455319123659}",
        "Num_of_Reviews": "342",
        "Rating": "4.5",
        "Zip_Code": "11101",
        "Cuisine": "Italian",
        "City_Region": "Queens"
    },
    {
        "Business_ID": "HodL0fXoF08C3Ir-kLeTtw",
        "Name": "Forma Pasta Factory",
        "Address": "14 Bedford Ave",
        "Coordinates": "{'latitude': 40.72371, 'longitude': -73.95157}",
        "Num_of_Reviews": "512",
        "Rating": "4.5",
        "Zip_Code": "11222",
        "Cuisine": "Italian",
        "City_Region": "Brooklyn"
    },
    {
        "Business_ID": "h4VCnZ2aZ33mdenS_ZI7jQ",
        "Name": "Mama Mia 44 SW",
        "Address": "621 9th Ave",
        "Coordinates": "{'latitude': 40.759761, 'longitude': -73.992065}",
        "Num_of_Reviews": "822",
        "Rating": "4.0",
        "Zip_Code": "10036",
        "Cuisine": "Italian",
        "City_Region": "Manhattan"
    },
    {
        "Business_ID": "o5mMVFk4Hcpk2FuKfgTgdg",
        "Name": "Malaparte",
        "Address": "753 Washington St",
        "Coordinates": "{'latitude': 40.73687, 'longitude': -74.00812}",
        "Num_of_Reviews": "394",
        "Rating": "4.0",
        "Zip_Code": "10014",
        "Cuisine": "Italian",
        "City_Region": "Manhattan"
    },
    {
        "Business_ID": "vZ5-JXlJS75k8wmPNS5U5w",
        "Name": "Max Soha Restaurant",
        "Address": "1274 Amsterdam Ave",
        "Coordinates": "{'latitude': 40.811324216443104, 'longitude': -73.9581736}",
        "Num_of_Reviews": "432",
        "Rating": "4.0",
        "Zip_Code": "10027",
        "Cuisine": "Italian",
        "City_Region": "Manhattan"
    },
    {
        "Business_ID": "IOHaEgK1zDvUvB3SfKuGCw",
        "Name": "Parker & Quinn",
        "Address": "64 W 39th St",
        "Coordinates": "{'latitude': 40.752586217581296, 'longitude': -73.9850713153442}",
        "Num_of_Reviews": "1593",
        "Rating": "4.0",
        "Zip_Code": "10018",
        "Cuisine": "Italian",
        "City_Region": "Manhattan"
    },
    {
        "Business_ID": "C3E8CVVwzKtOv_sRR1WuRQ",
        "Name": "Salumeria Rosi",
        "Address": "283 Amsterdam Ave",
        "Coordinates": "{'latitude': 40.77932, 'longitude': -73.9809}",
        "Num_of_Reviews": "560",
        "Rating": "4.0",
        "Zip_Code": "10023",
        "Cuisine": "Italian",
        "City_Region": "Manhattan"
    },
    {
        "Business_ID": "r2nIYBSyXny1-7XvsL2PVg",
        "Name": "Lena's Italian Kitchen",
        "Address": "551 2nd Ave",
        "Coordinates": "{'latitude': 40.742664, 'longitude': -73.977783}",
        "Num_of_Reviews": "324",
        "Rating": "4.5",
        "Zip_Code": "10016",
        "Cuisine": "Italian",
        "City_Region": "Manhattan"
    },
    {
        "Business_ID": "iXV4FMZPru7BB_nwN_8mVw",
        "Name": "Maiella",
        "Address": "4610 Center Blvd",
        "Coordinates": "{'latitude': 40.7471944, 'longitude': -73.9566640197964}",
        "Num_of_Reviews": "1094",
        "Rating": "4.0",
        "Zip_Code": "11109",
        "Cuisine": "Italian",
        "City_Region": "Queens"
    },
    {
        "Business_ID": "5k_jwjhdFMPUNWhouGNzuA",
        "Name": "Misi",
        "Address": "329 Kent Ave",
        "Coordinates": "{'latitude': 40.71341, 'longitude': -73.96662}",
        "Num_of_Reviews": "567",
        "Rating": "4.0",
        "Zip_Code": "11249",
        "Cuisine": "Italian",
        "City_Region": "Brooklyn"
    },
    {
        "Business_ID": "YKLvheNuhQ3083AEgx0V2Q",
        "Name": "Casa Soglia",
        "Address": "365 Park Ave S",
        "Coordinates": "{'latitude': 40.74215, 'longitude': -73.98472}",
        "Num_of_Reviews": "2",
        "Rating": "5.0",
        "Zip_Code": "10016",
        "Cuisine": "Italian",
        "City_Region": "Manhattan"
    },
    {
        "Business_ID": "zjglOaCY8xQu3s2eKnLFzw",
        "Name": "Mozzarella & Vino",
        "Address": "33 W 54th St",
        "Coordinates": "{'latitude': 40.76204, 'longitude': -73.97718}",
        "Num_of_Reviews": "265",
        "Rating": "4.0",
        "Zip_Code": "10019",
        "Cuisine": "Italian",
        "City_Region": "Manhattan"
    },
    {
        "Business_ID": "vbGqzhH_exG5HOG1I23kvg",
        "Name": "Park Side Restaurant",
        "Address": "107-01 Corona Ave",
        "Coordinates": "{'latitude': 40.743843, 'longitude': -73.856118}",
        "Num_of_Reviews": "880",
        "Rating": "4.0",
        "Zip_Code": "11368",
        "Cuisine": "Italian",
        "City_Region": "Queens"
    },
    {
        "Business_ID": "J9xVQScnr0lYWl61_mLXMA",
        "Name": "Lido",
        "Address": "2168 Frederick Douglass Blvd",
        "Coordinates": "{'latitude': 40.8049797781916, 'longitude': -73.9548260014624}",
        "Num_of_Reviews": "1164",
        "Rating": "4.0",
        "Zip_Code": "10026",
        "Cuisine": "Italian",
        "City_Region": "Manhattan"
    },
    {
        "Business_ID": "rpVX-o82EEOX8ZDnM28a_Q",
        "Name": "Bistango",
        "Address": "145 E 50th St",
        "Coordinates": "{'latitude': 40.75628, 'longitude': -73.97144}",
        "Num_of_Reviews": "344",
        "Rating": "4.0",
        "Zip_Code": "10022",
        "Cuisine": "Italian",
        "City_Region": "Manhattan"
    },
    {
        "Business_ID": "0Tvwk0hvgaY0QVIsZGTZKQ",
        "Name": "Antica Ristorante",
        "Address": "8 Stone St",
        "Coordinates": "{'latitude': 40.7039355145338, 'longitude': -74.0121731758117}",
        "Num_of_Reviews": "543",
        "Rating": "4.5",
        "Zip_Code": "10004",
        "Cuisine": "Italian",
        "City_Region": "Manhattan"
    },
    {
        "Business_ID": "tJxAlyeT5PRbUIyJ2wsv-A",
        "Name": "Bamonte's",
        "Address": "32 Withers St",
        "Coordinates": "{'latitude': 40.71666591260819, 'longitude': -73.95125357171182}",
        "Num_of_Reviews": "420",
        "Rating": "4.0",
        "Zip_Code": "11211",
        "Cuisine": "Italian",
        "City_Region": "Brooklyn"
    },
    {
        "Business_ID": "gAMETn5mltwjn2QLt6bWjw",
        "Name": "Isabella",
        "Address": "110 St Marks Pl",
        "Coordinates": "{'latitude': 40.726966, 'longitude': -73.984334}",
        "Num_of_Reviews": "14",
        "Rating": "5.0",
        "Zip_Code": "10009",
        "Cuisine": "Italian",
        "City_Region": "Manhattan"
    },
    {
        "Business_ID": "FQ_9HzcX6_vLFnNIJ30jiA",
        "Name": "Sant Ambroeus Brookfield",
        "Address": "200 Vesey St",
        "Coordinates": "{'latitude': 40.713713, 'longitude': -74.014797}",
        "Num_of_Reviews": "77",
        "Rating": "4.0",
        "Zip_Code": "10281",
        "Cuisine": "Italian",
        "City_Region": "Manhattan"
    },
    {
        "Business_ID": "cyLw0vW5MrsF35-A6Dy03w",
        "Name": "Saggio",
        "Address": "829 W 181st St",
        "Coordinates": "{'latitude': 40.8514099281625, 'longitude': -73.9395604556239}",
        "Num_of_Reviews": "676",
        "Rating": "4.0",
        "Zip_Code": "10033",
        "Cuisine": "Italian",
        "City_Region": "Manhattan"
    },
    {
        "Business_ID": "JyXn_GCGM2DsNYIzgzQrDw",
        "Name": "Da Gennaro",
        "Address": "129 Mulberry St",
        "Coordinates": "{'latitude': 40.71832, 'longitude': -73.99794}",
        "Num_of_Reviews": "1243",
        "Rating": "4.0",
        "Zip_Code": "10013",
        "Cuisine": "Italian",
        "City_Region": "Manhattan"
    },
    {
        "Business_ID": "t-Pm38_XhMnGfOYgkhaNRA",
        "Name": "Le Fanfare",
        "Address": "1103 Manhattan Ave",
        "Coordinates": "{'latitude': 40.736202, 'longitude': -73.955558}",
        "Num_of_Reviews": "227",
        "Rating": "4.0",
        "Zip_Code": "11222",
        "Cuisine": "Italian",
        "City_Region": "Brooklyn"
    },
    {
        "Business_ID": "7ZecxKox2SiVtsNDWphJZQ",
        "Name": "Limani",
        "Address": "45 Rockerfeller Plz",
        "Coordinates": "{'latitude': 40.7593809598193, 'longitude': -73.9778140767212}",
        "Num_of_Reviews": "510",
        "Rating": "4.0",
        "Zip_Code": "10111",
        "Cuisine": "Italian",
        "City_Region": "Manhattan"
    },
    {
        "Business_ID": "Ei5qjq0qmfNLkdVoO-S5Tw",
        "Name": "Raffetto's",
        "Address": "144 W Houston St",
        "Coordinates": "{'latitude': 40.72816, 'longitude': -74.00172}",
        "Num_of_Reviews": "249",
        "Rating": "4.5",
        "Zip_Code": "10012",
        "Cuisine": "Italian",
        "City_Region": "Manhattan"
    },
    {
        "Business_ID": "M4pCWzdBCkp2g_d834a7Hw",
        "Name": "Sauce",
        "Address": "78 Rivington St",
        "Coordinates": "{'latitude': 40.7204716, 'longitude': -73.9893263}",
        "Num_of_Reviews": "920",
        "Rating": "4.0",
        "Zip_Code": "10002",
        "Cuisine": "Italian",
        "City_Region": "Manhattan"
    },
    {
        "Business_ID": "hVqZ4vihjL1gFTD-KdX-Tw",
        "Name": "Gennaro",
        "Address": "665 Amsterdam Ave",
        "Coordinates": "{'latitude': 40.79178, 'longitude': -73.9718}",
        "Num_of_Reviews": "422",
        "Rating": "3.5",
        "Zip_Code": "10025",
        "Cuisine": "Italian",
        "City_Region": "Manhattan"
    },
    {
        "Business_ID": "78TCGIG1eHMYdyvMpFdDbQ",
        "Name": "Follia",
        "Address": "179 3rd Ave",
        "Coordinates": "{'latitude': 40.7349243164062, 'longitude': -73.9855880737305}",
        "Num_of_Reviews": "275",
        "Rating": "4.0",
        "Zip_Code": "10003",
        "Cuisine": "Italian",
        "City_Region": "Manhattan"
    },
    {
        "Business_ID": "WmK7GXwOnLSTRN1ocyUThg",
        "Name": "Puglia Ristorante",
        "Address": "189 Hester St",
        "Coordinates": "{'latitude': 40.7181606872639, 'longitude': -73.9976975651144}",
        "Num_of_Reviews": "618",
        "Rating": "4.0",
        "Zip_Code": "10013",
        "Cuisine": "Italian",
        "City_Region": "Manhattan"
    },
    {
        "Business_ID": "Rc1lxc5lSKJYd162JHNMfQ",
        "Name": "Bea",
        "Address": "403 W 43rd St",
        "Coordinates": "{'latitude': 40.7591968, 'longitude': -73.9923361}",
        "Num_of_Reviews": "2809",
        "Rating": "4.0",
        "Zip_Code": "10036",
        "Cuisine": "Italian",
        "City_Region": "Manhattan"
    },
    {
        "Business_ID": "-Td-YEPTOUq2H3LRWgRxUw",
        "Name": "Non Solo Piada",
        "Address": "302 W 37th St",
        "Coordinates": "{'latitude': 40.75414, 'longitude': -73.99245}",
        "Num_of_Reviews": "407",
        "Rating": "4.5",
        "Zip_Code": "10018",
        "Cuisine": "Italian",
        "City_Region": "Manhattan"
    },
    {
        "Business_ID": "hyBM_Xk9Hzp38acTHAHlBQ",
        "Name": "dell'anima",
        "Address": "600 11th Ave",
        "Coordinates": "{'latitude': 40.7661790467228, 'longitude': -73.99445587334046}",
        "Num_of_Reviews": "683",
        "Rating": "4.0",
        "Zip_Code": "10036",
        "Cuisine": "Italian",
        "City_Region": "Manhattan"
    },
    {
        "Business_ID": "o2SAcKbfOMkA71xUfyee6Q",
        "Name": "Rossini's",
        "Address": "108 E 38th St",
        "Coordinates": "{'latitude': 40.74921, 'longitude': -73.97883}",
        "Num_of_Reviews": "260",
        "Rating": "4.0",
        "Zip_Code": "10016",
        "Cuisine": "Italian",
        "City_Region": "Manhattan"
    },
    {
        "Business_ID": "VmgvCsAP6vZ3DL1mw8ugWQ",
        "Name": "Osteria Del Porto",
        "Address": "212 Front St",
        "Coordinates": "{'latitude': 40.70737443140159, 'longitude': -74.00270427364536}",
        "Num_of_Reviews": "53",
        "Rating": "4.5",
        "Zip_Code": "10038",
        "Cuisine": "Italian",
        "City_Region": "Manhattan"
    },
    {
        "Business_ID": "qYDoWRdntIApGW6fEUHWIQ",
        "Name": "biricchino",
        "Address": "260 W 29th St",
        "Coordinates": "{'latitude': 40.7488743961, 'longitude': -73.9954839431414}",
        "Num_of_Reviews": "164",
        "Rating": "4.0",
        "Zip_Code": "10001",
        "Cuisine": "Italian",
        "City_Region": "Manhattan"
    },
    {
        "Business_ID": "bW3mY-voyav37nU0uaLmNQ",
        "Name": "Dante",
        "Address": "79-81 Macdougal St",
        "Coordinates": "{'latitude': 40.72879, 'longitude': -74.00165}",
        "Num_of_Reviews": "588",
        "Rating": "4.0",
        "Zip_Code": "10012",
        "Cuisine": "Italian",
        "City_Region": "Manhattan"
    },
    {
        "Business_ID": "5pRxCYQppSq0czjFDN9X3Q",
        "Name": "Campagnola Restaurant",
        "Address": "1382 1st Ave",
        "Coordinates": "{'latitude': 40.768817, 'longitude': -73.954833}",
        "Num_of_Reviews": "315",
        "Rating": "4.0",
        "Zip_Code": "10021",
        "Cuisine": "Italian",
        "City_Region": "Manhattan"
    },
    {
        "Business_ID": "Z67mgMkN3RfdPEX5mXsyYA",
        "Name": "Piacere",
        "Address": "351 Broome St",
        "Coordinates": "{'latitude': 40.7196979, 'longitude': -73.9951175}",
        "Num_of_Reviews": "711",
        "Rating": "4.0",
        "Zip_Code": "10013",
        "Cuisine": "Italian",
        "City_Region": "Manhattan"
    },
    {
        "Business_ID": "vFsjObMTImsnM_DzVo4N3g",
        "Name": "Bocca Cucina and Bar",
        "Address": "39 E 19th St",
        "Coordinates": "{'latitude': 40.73826, 'longitude': -73.98886}",
        "Num_of_Reviews": "442",
        "Rating": "4.0",
        "Zip_Code": "10003",
        "Cuisine": "Italian",
        "City_Region": "Manhattan"
    },
    {
        "Business_ID": "bEXTA_Gwo2oVg4gnFd9fNA",
        "Name": "Ai Fiori",
        "Address": "400 5th Ave",
        "Coordinates": "{'latitude': 40.7500752, 'longitude': -73.9837835}",
        "Num_of_Reviews": "1452",
        "Rating": "4.0",
        "Zip_Code": "10018",
        "Cuisine": "Italian",
        "City_Region": "Manhattan"
    },
    {
        "Business_ID": "XfOa_KyrV7JSFJMOKckGMg",
        "Name": "Monte's Trattoria",
        "Address": "97 Macdougal St",
        "Coordinates": "{'latitude': 40.72959, 'longitude': -74.0011}",
        "Num_of_Reviews": "420",
        "Rating": "4.0",
        "Zip_Code": "10012",
        "Cuisine": "Italian",
        "City_Region": "Manhattan"
    },
    {
        "Business_ID": "KXhxtA_JDkCrujeyXvqsgQ",
        "Name": "Canto",
        "Address": "117 Perry St",
        "Coordinates": "{'latitude': 40.73512, 'longitude': -74.00671}",
        "Num_of_Reviews": "122",
        "Rating": "4.0",
        "Zip_Code": "10014",
        "Cuisine": "Italian",
        "City_Region": "Manhattan"
    },
    {
        "Business_ID": "LTi4_wcCVmqQeJ_jgTEbOQ",
        "Name": "Emporio",
        "Address": "231 Mott St",
        "Coordinates": "{'latitude': 40.722647, 'longitude': -73.995246}",
        "Num_of_Reviews": "863",
        "Rating": "4.0",
        "Zip_Code": "10012",
        "Cuisine": "Italian",
        "City_Region": "Manhattan"
    },
    {
        "Business_ID": "vRrVSB-LegwUwIxpkeRVtQ",
        "Name": "Le Bernardin",
        "Address": "155 W 51st St",
        "Coordinates": "{'latitude': 40.761557, 'longitude': -73.981763}",
        "Num_of_Reviews": "2829",
        "Rating": "4.5",
        "Zip_Code": "10019",
        "Cuisine": "Italian",
        "City_Region": "Manhattan"
    },
    {
        "Business_ID": "JYNBy2r3LVhJbLHE1bASfg",
        "Name": "The Smith",
        "Address": "1900 Broadway",
        "Coordinates": "{'latitude': 40.7716201269986, 'longitude': -73.9818377981476}",
        "Num_of_Reviews": "2038",
        "Rating": "4.0",
        "Zip_Code": "10023",
        "Cuisine": "Italian",
        "City_Region": "Manhattan"
    },
    {
        "Business_ID": "PYnN8fN8o0toVdLXl6z69A",
        "Name": "Zillions Pizza",
        "Address": "360 W 42nd St",
        "Coordinates": "{'latitude': 40.758132, 'longitude': -73.99236}",
        "Num_of_Reviews": "4",
        "Rating": "4.5",
        "Zip_Code": "10036",
        "Cuisine": "Italian",
        "City_Region": "Manhattan"
    },
    {
        "Business_ID": "LfRiA6RORToZUSJUHkZBVA",
        "Name": "Frankies 457 Spuntino",
        "Address": "457 Court St",
        "Coordinates": "{'latitude': 40.677328, 'longitude': -73.997972}",
        "Num_of_Reviews": "884",
        "Rating": "4.0",
        "Zip_Code": "11231",
        "Cuisine": "Italian",
        "City_Region": "Brooklyn"
    }
]